[
  {
    "instructors": "Jordan Pedersen,Lise Doucette,Mariana Jardim",
    "end_date": "2020-01-09",
    "url": "https://JordanPedersen.github.io/2020-01-08-utsc",
    "country": "CA",
    "curriculum": "lc",
    "venue": "University of Toronto",
    "longitude": -79.19056,
    "slug": "2020-01-08-utsc",
    "tag_name": "LC",
    "helpers": "May Chan,Deena Yanofsky,Sarah Forbes",
    "host_name": "University of Toronto (Scarborough)",
    "latitude": 43.78725,
    "start_date": "2020-01-08"
  },
  {
    "instructors": "Scott Peterson,Celia Emmelhainz,Zac Painter",
    "end_date": "2019-12-17",
    "url": "https://scottcpeterson.github.io/2019-12-16-UCBerkeley/",
    "country": "US",
    "curriculum": "lc",
    "venue": "UC Berkeley",
    "longitude": -122.257873,
    "slug": "2019-12-16-UCBerkeley",
    "tag_name": "LC",
    "helpers": "Ariel Deardorff,Anna Sackmann,Rick Jaffe,Eric Lopatin",
    "host_name": "University of California Berkeley",
    "latitude": 37.870055,
    "start_date": "2019-12-16"
  },
  {
    "instructors": "David Yakobovitch,Chuck McAndrew",
    "end_date": "2019-12-14",
    "url": "https://dcmcand.github.io/2019-12-12-louisville",
    "country": "US",
    "curriculum": "lc",
    "venue": "University of Louisville",
    "longitude": -85.760722,
    "slug": "2019-12-12-louisville",
    "tag_name": "LC",
    "helpers": null,
    "host_name": "University of Louisville",
    "latitude": 38.216906,
    "start_date": "2019-12-13"
  },
  {
    "instructors": "Evamaria Krause,Till Sauerwein,Christian Krippes",
    "end_date": "2019-11-19",
    "url": "https://evamarik.github.io/2019-11-frankfurt/",
    "country": "DE",
    "curriculum": "lc",
    "venue": "Library Carpentry, Frankfurt a.M.",
    "longitude": 8.66495,
    "slug": "2019-11-18-frankfurt",
    "tag_name": "LC",
    "helpers": null,
    "host_name": "Universität Augsburg University",
    "latitude": 50.12828,
    "start_date": "2019-11-18"
  },
  {
    "instructors": "Paige Morgan",
    "end_date": "2019-11-08",
    "url": "https://paigecm.github.io/2019-11-08-udel/",
    "country": "US",
    "curriculum": "lc",
    "venue": "University of Delaware",
    "longitude": -75.753007,
    "slug": "2019-11-08-udel",
    "tag_name": "LC",
    "helpers": null,
    "host_name": "University of Delaware",
    "latitude": 39.677914,
    "start_date": "2019-11-08"
  },
  {
    "instructors": null,
    "end_date": "2019-11-05",
    "url": "https://lirgroup.heanet.ie/index.php/2019/10/01/library-carpentry-workshop-4th-5th-nov-ucd/",
    "country": "IE",
    "curriculum": "lc",
    "venue": "James Joyce Library, Ballsbridge, Dublin",
    "longitude": -6.222781,
    "slug": "2019-11-04-dublin",
    "tag_name": "LC",
    "helpers": null,
    "host_name": "University College Dublin",
    "latitude": 53.307629,
    "start_date": "2019-11-04"
  },
  {
    "instructors": "Martin Czygan,Ronny Gey,Tracy Hoffmann,Peter Mühleder,Florian Rämisch",
    "end_date": "2019-11-05",
    "url": "https://ubleipzig.github.io/2019-11-04-leipzig/",
    "country": "DE",
    "curriculum": "lc-other",
    "venue": "Universitätsbibliothek Leipzig",
    "longitude": 12.38978,
    "slug": "2019-11-04-leipzig",
    "tag_name": "LC",
    "helpers": "Stefan Dombek,Istvan-Tibor Nebel",
    "host_name": "Leipzig University Library",
    "latitude": 51.33155,
    "start_date": "2019-11-04"
  },
  {
    "instructors": "Sarah Pugachev,Vratika Chaudhary",
    "end_date": "2019-11-01",
    "url": "https://nydclc.github.io/2019-11-01-rochester/",
    "country": "US",
    "curriculum": "lc",
    "venue": "Rochester, NY",
    "longitude": -77.618451,
    "slug": "2019-11-01-rochester",
    "tag_name": "LC",
    "helpers": "Emily Sherwood,Blair Tinker,Patrick Williams",
    "host_name": "New York Data Carpentries Library Consortium (NYDCLC)",
    "latitude": 43.068325,
    "start_date": "2019-11-01"
  },
  {
    "instructors": "David Yakobovitch,Jacob Koehler",
    "end_date": "2019-10-25",
    "url": "https://nydclc.github.io/2019-10-25-oneonta/",
    "country": "US",
    "curriculum": "lc-other",
    "venue": "SUNY, Oneonta",
    "longitude": -75.0636,
    "slug": "2019-10-25-oneonta",
    "tag_name": "LC",
    "helpers": "Eliza Bettinger,Jesi Buell,Adrienne Canino,Deirdre Joyce",
    "host_name": "New York Data Carpentries Library Consortium (NYDCLC)",
    "latitude": 42.471,
    "start_date": "2019-10-25"
  },
  {
    "instructors": "Joshua Dull,Ashley Champagne",
    "end_date": "2019-10-22",
    "url": "https://NESCLiC.github.io/2019-10-21-NEASIST-Brown",
    "country": "US",
    "curriculum": "lc-other",
    "venue": "Brown University Library",
    "longitude": -71.405109,
    "slug": "2019-10-21-NEASIST-Brown",
    "tag_name": "LC",
    "helpers": "Kelsey Sawyer,Justin Uhr",
    "host_name": "Yale University",
    "latitude": 41.825748,
    "start_date": "2019-10-21"
  },
  {
    "instructors": "Armin Straube,Amirah Al Sarraj,Somia Salim",
    "end_date": "2019-10-17",
    "url": "https://arminstraube.github.io/2019-10-16-UCLQ/",
    "country": "QA",
    "curriculum": "lc",
    "venue": "UCL Qatar",
    "longitude": 51.444066,
    "slug": "2019-10-16-UCLQ",
    "tag_name": "LC",
    "helpers": null,
    "host_name": "University College London",
    "latitude": 25.318391,
    "start_date": "2019-10-16"
  },
  {
    "instructors": "Konrad Förstner,Till Sauerwein",
    "end_date": "2019-09-26",
    "url": "https://zbiw.github.io/2019-09-25-Library_Carpentry_TH_Koeln_ZBIW/",
    "country": "DE",
    "curriculum": "lc",
    "venue": "TH Köln – University of Applied Sciences , Zentrum für Bibliotheks- und Informationswissenschaftliche Weiterbildung (ZBIW)",
    "longitude": 6.96687,
    "slug": "2019-09-25-Library_Carpentry_TH_Koeln_ZBIW",
    "tag_name": "LC",
    "helpers": "Felix Langer",
    "host_name": "ZB Med Information Centre for Life Sciences",
    "latitude": 50.91945,
    "start_date": "2019-09-25"
  },
  {
    "instructors": "Christopher Erdmann,Laura Wrubel,Jesse Johnston",
    "end_date": "2019-09-25",
    "url": "https://morskyjezek.github.io/2019-09-24-libraryofcongress",
    "country": "US",
    "curriculum": "lc-other",
    "venue": "Library of Congress",
    "longitude": -77.003087,
    "slug": "2019-09-24-libraryofcongress",
    "tag_name": "LC",
    "helpers": "Mike Trizna,Mark Cooper,Rachel Trent",
    "host_name": "Library of Congress",
    "latitude": 38.88849,
    "start_date": "2019-09-24"
  },
  {
    "instructors": "Konrad Förstner,Till Sauerwein",
    "end_date": "2019-09-24",
    "url": "https://zbmed.github.io/2019-09-23-Library_Carpentry_TH_Koeln/",
    "country": "DE",
    "curriculum": "lc",
    "venue": "TH Köln – University of Applied Sciences",
    "longitude": 6.96687,
    "slug": "2019-09-23-Library_Carpentry_TH_Koeln",
    "tag_name": "LC",
    "helpers": "Silvia Di Giorgio",
    "host_name": "ZB Med Information Centre for Life Sciences",
    "latitude": 50.91945,
    "start_date": "2019-09-23"
  },
  {
    "instructors": "Konrad Förstner,Till Sauerwein",
    "end_date": "2019-09-19",
    "url": "https://zbmed.github.io/2019-09-18-Library_Carpentry_ZB_MED_Cologne/",
    "country": "DE",
    "curriculum": "lc",
    "venue": "ZB MED",
    "longitude": 6.91646,
    "slug": "2019-09-18-Library_Carpentry_ZB_MED_Cologne",
    "tag_name": "LC",
    "helpers": "Silvia Di Giorgio",
    "host_name": "ZB Med Information Centre for Life Sciences",
    "latitude": 50.92465,
    "start_date": "2019-09-18"
  },
  {
    "instructors": "Denice Adkins,Anna Oates",
    "end_date": "2019-10-12",
    "url": "https://firbolg.github.io/2019-12-09-mohub/",
    "country": "US",
    "curriculum": "lc",
    "venue": "Washington University",
    "longitude": -90.328485,
    "slug": "2019-12-09-mohub",
    "tag_name": "LC",
    "helpers": "Daron Dierkes,Dorris Scott,Levi Dolan",
    "host_name": "Washington University in St. Louis",
    "latitude": 38.649706,
    "start_date": "2019-09-12"
  },
  {
    "instructors": "Raniere Silva,Rooweither Mabuya,Oghenere Salubi",
    "end_date": "2019-09-04",
    "url": "https://uwc-eresearch.github.io/2019-09-03-UWC_Bellville/",
    "country": "ZA",
    "curriculum": "lc",
    "venue": "University of the Western Cape Library Carpentry Workshop",
    "longitude": 18.626972,
    "slug": "2019-09-03-UWC_Bellville",
    "tag_name": "LC",
    "helpers": null,
    "host_name": "University of the Western Cape",
    "latitude": -33.932095,
    "start_date": "2019-09-03"
  },
  {
    "instructors": "Anton Angelo",
    "end_date": "2019-08-27",
    "url": "https://antonangelo.github.io/2019-08-26-massey/",
    "country": "NZ",
    "curriculum": "lc",
    "venue": "Massey University",
    "longitude": 175.61632,
    "slug": "2019-08-26-massey",
    "tag_name": "LC",
    "helpers": null,
    "host_name": "Massey University",
    "latitude": -40.38607,
    "start_date": "2019-08-26"
  },
  {
    "instructors": "Jeffrey Oliver,Fernando Rios,Jennifer Nichols,Niamh Wallace",
    "end_date": "2019-08-23",
    "url": "https://jcoliver.github.io/2019-08-22-lc-tucson/",
    "country": "US",
    "curriculum": "lc-other",
    "venue": "University of Arizona",
    "longitude": -110.949606,
    "slug": "2019-08-22-lc-tucson",
    "tag_name": "LC",
    "helpers": "Lauren Washuk",
    "host_name": "University of Arizona",
    "latitude": 32.230928,
    "start_date": "2019-08-22"
  },
  {
    "instructors": "Scott Peterson,Zac Painter",
    "end_date": "2019-08-02",
    "url": "https://libcce.github.io/2019-08-01-CDL/",
    "country": "US",
    "curriculum": "lc",
    "venue": "California Digital Library",
    "longitude": -122.2696674,
    "slug": "2019-08-01-CDL",
    "tag_name": "LC",
    "helpers": "Ariel Deardorff,John Chodacki,Celia Emmelhainz,Rick Jaffe,Eric Lopatin,Charlie Macquarie",
    "host_name": "California Digital Library",
    "latitude": 37.8084796,
    "start_date": "2019-08-01"
  },
  {
    "instructors": "Jamie Jamison,Kristian Allen,Leigh Phan",
    "end_date": "2019-07-25",
    "url": "https://ucla-data-archive.github.io/2019-07-24-ucla/",
    "country": "US",
    "curriculum": "lc,lc-other",
    "venue": "UCLA Library",
    "longitude": -118.441303,
    "slug": "2019-07-24-ucla",
    "tag_name": "LC",
    "helpers": "Tim Dennis,David Palmquist,Dave George,Scott Gruber",
    "host_name": "University of California Los Angeles",
    "latitude": 34.075059,
    "start_date": "2019-07-24"
  },
  {
    "instructors": "Elisabeth Shook",
    "end_date": "2019-07-19",
    "url": "https://eshook2010.github.io/2019-07-18-vanderbilt/",
    "country": "US",
    "curriculum": "lc,lc-other",
    "venue": "Vanderbilt University",
    "longitude": -86.79961,
    "slug": "2019-07-18-vanderbilt",
    "tag_name": "LC",
    "helpers": "Stacy Curry-Johnson,Jamen McGranahan,Sarah Swanz",
    "host_name": "Vanderbilt University",
    "latitude": 36.14605,
    "start_date": "2019-07-18"
  },
  {
    "instructors": "Marianne Corvellec,Nilani Ganeshwaran",
    "end_date": "2019-07-05",
    "url": "https://fmichonneau.github.io/2019-07-04-parma/",
    "country": "IT",
    "curriculum": "lc",
    "venue": "Università di Parma",
    "longitude": 10.311768,
    "slug": "2019-07-04-parma",
    "tag_name": "LC",
    "helpers": "Baha Thabet",
    "host_name": "University of Parma - Università degli Studi di Parma",
    "latitude": 44.765092,
    "start_date": "2019-07-04"
  },
  {
    "instructors": "Joshua Dull,Catherine DeRose,Barbara Esty,David Cirella",
    "end_date": "2019-06-13",
    "url": "https://nesclic.github.io/2019-06-12-Yale/",
    "country": "US",
    "curriculum": "lc",
    "venue": "Yale University Library",
    "longitude": -72.923454,
    "slug": "2019-06-12-Yale",
    "tag_name": "LC",
    "helpers": "Kate Nyhan,Sawyer Newman",
    "host_name": "Yale University",
    "latitude": 41.312756,
    "start_date": "2019-06-12"
  },
  {
    "instructors": "Anton Angelo,Janice Chan",
    "end_date": "2019-06-12",
    "url": "https://antonangelo.github.io/2019-06-11-las",
    "country": "SG",
    "curriculum": "lc",
    "venue": "Library Association of Singapore",
    "longitude": 103.681667,
    "slug": "2019-06-11-las",
    "tag_name": "LC",
    "helpers": "Chew Shu Wen,Danping Dong,Lavanya Asokan,Malar Thomas,Schusie Sun Guangyuan",
    "host_name": "Library Association of Singapore",
    "latitude": 1.347545,
    "start_date": "2019-06-11"
  },
  {
    "instructors": "Avishek Kumar,Will Trimble,Karen Gutzman,Adam Hecktman",
    "end_date": "2019-05-24",
    "url": "https://pitviper6.github.io/2019-05-23-chicagoMSTech/",
    "country": "US",
    "curriculum": null,
    "venue": "Microsoft Technology Center",
    "longitude": -87.621521,
    "slug": "2019-05-23-chicagoMSTech",
    "tag_name": "LC",
    "helpers": "Juliane Schneider",
    "host_name": "Harvard University",
    "latitude": 41.885303,
    "start_date": "2019-05-23"
  },
  {
    "instructors": "Rachel Wang",
    "end_date": "2019-03-12",
    "url": "https://jordanpedersen.github.io/2019-03-11-UniversityofToronto/",
    "country": "CA",
    "curriculum": "lc",
    "venue": "University of Toronto",
    "longitude": -79.39801,
    "slug": "2019-03-11-UniversityofToronto",
    "tag_name": "LC",
    "helpers": "Jordan Pedersen,Sarah Gorman,Angel Su,Dominique Glassman",
    "host_name": "University of Toronto",
    "latitude": 43.66304,
    "start_date": "2019-03-11"
  },
  {
    "instructors": "Juan Steyn",
    "end_date": "2019-02-01",
    "url": "https://dh-southernafrica.github.io/2019-01-30-WITS-LC/",
    "country": "ZA",
    "curriculum": "lc-other",
    "venue": "NEPTTP WITS Library Carpentry Workshop",
    "longitude": 28.2483343,
    "slug": "2019-01-30-WITS-LC",
    "tag_name": "LC",
    "helpers": "Retha Langa,Pelumi Oladokun",
    "host_name": "University of the Witwatersrand",
    "latitude": -26.175525,
    "start_date": "2019-01-30"
  },
  {
    "instructors": "Konrad Förstner,Silvia Di Giorgio",
    "end_date": "2019-01-16",
    "url": "https://zbmed.github.io/2019-01-15-Library_Carpentry_Cologne/",
    "country": "DE",
    "curriculum": "lc-other",
    "venue": "ZB MED",
    "longitude": 6.91646,
    "slug": "2019-01-15-Library_Carpentry_Cologne",
    "tag_name": "LC",
    "helpers": "Christian Kurrat,eva Seidlmayer",
    "host_name": "ZB Med Information Centre for Life Sciences",
    "latitude": 50.92465,
    "start_date": "2019-01-15"
  },
  {
    "instructors": "Konrad Förstner,Silvia Di Giorgio",
    "end_date": "2018-12-13",
    "url": "https://zbmed.github.io/2018-12-12-Library_Carpentry_Cologne/",
    "country": "DE",
    "curriculum": null,
    "venue": "ZB MED",
    "longitude": 6.91646,
    "slug": "2018-12-12-Library_Carpentry_Cologne",
    "tag_name": "LC",
    "helpers": "Muhammad Elhossary,Christian Kurrat,eva Seidlmayer",
    "host_name": "ZB Med Information Centre for Life Sciences",
    "latitude": 50.924681,
    "start_date": "2018-12-12"
  },
  {
    "instructors": "Nilani Ganeshwaran,Phil Reed",
    "end_date": "2018-11-30",
    "url": "https://uom-nilani.github.io/2018-11-30-Manchester/",
    "country": "GB",
    "curriculum": null,
    "venue": "The University of Manchester Library",
    "longitude": -2.23743,
    "slug": "2018-11-30-Manchester",
    "tag_name": "LC",
    "helpers": "Jane Gallagher,Jochen Farwer,Carlene Barton",
    "host_name": "University of Manchester",
    "latitude": 53.48095,
    "start_date": "2018-11-30"
  },
  {
    "instructors": "Katrin Leinweber,Jens Wonke-Stehle,Felix Hemme,Felix Lohmeier,Phú Tu",
    "end_date": "2018-11-06",
    "url": "https://vdb-org.github.io/2018-11-05-Hamburg/",
    "country": "DE",
    "curriculum": null,
    "venue": "SUB Hamburg",
    "longitude": 9.98516,
    "slug": "2018-11-05-Hamburg",
    "tag_name": "LC",
    "helpers": null,
    "host_name": "Stabi Hamburg - Universität Hamburg",
    "latitude": 53.56481,
    "start_date": "2018-11-05"
  },
  {
    "instructors": "Konrad Förstner,Silvia Di Giorgio",
    "end_date": "2018-10-25",
    "url": "https://zbmed.github.io/2018-10-24-Library_Carpentry_Cologne/",
    "country": "DE",
    "curriculum": null,
    "venue": "ZB MED",
    "longitude": 6.91646,
    "slug": "2018-10-24-Library_Carpentry_Cologne",
    "tag_name": "LC",
    "helpers": "Christian Kurrat,eva Seidlmayer,Christoph Poley",
    "host_name": "ZB Med Information Centre for Life Sciences",
    "latitude": 50.924681,
    "start_date": "2018-10-24"
  },
  {
    "instructors": "Joshua Dull,Kristin Lee,Kate Nyhan",
    "end_date": "2018-10-23",
    "url": "https://nesclic.github.io/2018-10-22-NEASIST-Brown/",
    "country": "US",
    "curriculum": null,
    "venue": "Brown University Library",
    "longitude": -71.405109,
    "slug": "2018-10-22-yale",
    "tag_name": "LC",
    "helpers": "Andrew Creamer,Ashley Champagne,Jeanette Norris,Crystal Brusch,Patrick Rashleigh",
    "host_name": "Yale University",
    "latitude": 41.825748,
    "start_date": "2018-10-22"
  },
  {
    "instructors": "Belinda Weaver",
    "end_date": "2018-10-08",
    "url": "https://weaverbel.github.io/2018-10-08-monash-lc/",
    "country": "AU",
    "curriculum": null,
    "venue": "Monash University Library",
    "longitude": 145.137217,
    "slug": "2018-10-08-monash-lc",
    "tag_name": "LC",
    "helpers": "Nick Wong,Sonika Tyagi",
    "host_name": "Monash University",
    "latitude": -37.91048,
    "start_date": "2018-10-08"
  },
  {
    "instructors": "Kyrre Låberg,Dan Michael Heggø,Hans Gunnar Lian",
    "end_date": "2018-09-26",
    "url": "https://scriptotek.github.io/2018-09-25-Bergen/",
    "country": "NO",
    "curriculum": null,
    "venue": "Library Carpentry @ University of Bergen",
    "longitude": 5.31968,
    "slug": "2018-09-25-Bergen",
    "tag_name": "LC",
    "helpers": "Tarje Lavik,Ahl Vegard Nilsen,Simon Mitternacht",
    "host_name": "University of Bergen",
    "latitude": 60.38783,
    "start_date": "2018-09-25"
  },
  {
    "instructors": "Mesfin Diro Chaka,Alehegn Adane Kinde,DAGIM YOSEPH",
    "end_date": "2018-09-25",
    "url": "https://mesfind.github.io/2018-09-24-LC-UOG/",
    "country": "ET",
    "curriculum": "lc-other",
    "venue": "University of Gonder",
    "longitude": 37.442062,
    "slug": "2018-09-24-LC-UOG",
    "tag_name": "LC",
    "helpers": null,
    "host_name": "University of Gondar",
    "latitude": 12.581942,
    "start_date": "2018-09-24"
  },
  {
    "instructors": "Konrad Förstner,Silvia Di Giorgio",
    "end_date": "2018-09-24",
    "url": "https://zbmed.github.io/2018-09-21-Library_Carpentry_Cologne/",
    "country": "DE",
    "curriculum": null,
    "venue": "ZB MED",
    "longitude": 6.91646,
    "slug": "2018-09-21-Library_Carpentry_Cologne",
    "tag_name": "LC",
    "helpers": "Muhammad Elhossary,Christian Kurrat",
    "host_name": "ZB Med Information Centre for Life Sciences",
    "latitude": 50.924681,
    "start_date": "2018-09-21"
  },
  {
    "instructors": "Juan Steyn,Zine Sapula,Kayleigh Lino,Zak van Heerden",
    "end_date": "2018-09-05",
    "url": "https://dh-southernafrica.github.io/2018-09-03-CarpentryConnect-JHB-LC/",
    "country": "ZA",
    "curriculum": null,
    "venue": "CarpentryConnect Johannesburg 2018 - Library Carpentry",
    "longitude": 28.2483343,
    "slug": "2018-09-03-CarpentryConnect-JHB-LC",
    "tag_name": "LC",
    "helpers": "Kirchner van Deventer,Andiswa Bukula,Oghenere Salubi,Miriam Pimentel,Roo Mabuya",
    "host_name": "South African Centre for Digital Language Resources (SADiLaR)",
    "latitude": -26.175525,
    "start_date": "2018-09-03"
  },
  {
    "instructors": "Juliane Schneider,Christopher Erdmann",
    "end_date": "2018-08-29",
    "url": "https://libcce.github.io/2018-08-28-calgary/",
    "country": "CA",
    "curriculum": null,
    "venue": "University of Calgary Libraries",
    "longitude": -114.1320767,
    "slug": "2018-08-28-ucalgary",
    "tag_name": "LC",
    "helpers": "Paul Pival,Ingrid Reiche,Calum Center,John Brosz",
    "host_name": "University of Calgary",
    "latitude": 51.077598,
    "start_date": "2018-08-28"
  },
  {
    "instructors": "Konrad Förstner,Silvia Di Giorgio",
    "end_date": "2018-08-23",
    "url": "https://zbmed.github.io/2018-08-22-Library_Carpentry_Cologne/",
    "country": "DE",
    "curriculum": null,
    "venue": "ZB MED",
    "longitude": 6.91646,
    "slug": "2018-08-22-Library_Carpentry_Cologne",
    "tag_name": "LC",
    "helpers": "Christian Kurrat,Xin Hu,Michael Lackhoff",
    "host_name": "ZB Med Information Centre for Life Sciences",
    "latitude": 50.924681,
    "start_date": "2018-08-22"
  },
  {
    "instructors": "Joshua Dull,Kate Nyhan,Catherine DeRose",
    "end_date": "2018-08-16",
    "url": "https://nesclic.github.io/2018-08-15-YUL/",
    "country": "US",
    "curriculum": null,
    "venue": "Yale University Library",
    "longitude": -72.923457,
    "slug": "2018-08-15-YUL",
    "tag_name": "LC",
    "helpers": null,
    "host_name": "Yale University",
    "latitude": 41.312736,
    "start_date": "2018-08-15"
  },
  {
    "instructors": "Tim Ribaric,James Desjardins,Mita Williams",
    "end_date": "2018-08-14",
    "url": "https://elibtronic.github.io/2018-08-13-BrockU/",
    "country": "CA",
    "curriculum": null,
    "venue": "Brock University",
    "longitude": -79.243199,
    "slug": "2018-08-13-BrockU",
    "tag_name": "LC",
    "helpers": "John Fink",
    "host_name": "Brock University",
    "latitude": 43.117125,
    "start_date": "2018-08-13"
  },
  {
    "instructors": "Jeffrey Oliver,Ben Hickson,Fernando Rios,Jennifer Nichols,Niamh Wallace",
    "end_date": "2018-08-07",
    "url": "https://jcoliver.github.io/2018-08-06-lc-tucson/",
    "country": "US",
    "curriculum": null,
    "venue": "University of Arizona",
    "longitude": -110.949154,
    "slug": "2018-08-06-lc-tucson",
    "tag_name": "LC",
    "helpers": "Arthur Delsing,Mike Hagedon",
    "host_name": "University of Arizona",
    "latitude": 32.231182,
    "start_date": "2018-08-06"
  },
  {
    "instructors": "Erika Mias,Yonas Demissew",
    "end_date": "2018-07-27",
    "url": "https://dagimy.github.io/2018-07-25-Tegbareid/",
    "country": "ET",
    "curriculum": null,
    "venue": "Addis Ababa Tegbareid TVET College",
    "longitude": 38.743829,
    "slug": "2018-07-25-Tegbareid",
    "tag_name": "LC",
    "helpers": null,
    "host_name": "Ethiopian Research and Education Network",
    "latitude": 9.010413,
    "start_date": "2018-07-25"
  },
  {
    "instructors": "Belinda Weaver",
    "end_date": "2018-07-12",
    "url": "https://weaverbel.github.io/2018-07-12-auckland/",
    "country": "NZ",
    "curriculum": null,
    "venue": "Library Carpentry - University of Auckland",
    "longitude": 174.7671453,
    "slug": "2018-07-12-auckland",
    "tag_name": "LC",
    "helpers": null,
    "host_name": "University of Auckland",
    "latitude": -36.8512521,
    "start_date": "2018-07-12"
  },
  {
    "instructors": "Belinda Weaver",
    "end_date": "2018-07-11",
    "url": "https://weaverbel.github.io/2018-07-11-massey/",
    "country": "NZ",
    "curriculum": null,
    "venue": "Library Carpentry - Massey University",
    "longitude": 175.5961245,
    "slug": "2018-07-11-massey",
    "tag_name": "LC",
    "helpers": null,
    "host_name": "Massey University",
    "latitude": -40.3844303,
    "start_date": "2018-07-11"
  },
  {
    "instructors": "Aleksandra Pawlik,Belinda Weaver",
    "end_date": "2018-07-09",
    "url": "https://weaverbel.github.io/2018-07-09-canterbury/",
    "country": "NZ",
    "curriculum": null,
    "venue": "Library Carpentry - University of Canterbury",
    "longitude": 172.5817293,
    "slug": "2018-07-09-canterbury",
    "tag_name": "LC",
    "helpers": null,
    "host_name": "University of Canterbury",
    "latitude": -43.5235336,
    "start_date": "2018-07-09"
  },
  {
    "instructors": "Jonah Duckles,Belinda Weaver",
    "end_date": "2018-07-05",
    "url": "https://weaverbel.github.io/2018-07-05-dunedin/",
    "country": "NZ",
    "curriculum": null,
    "venue": "Library Carpentry - University of Otago",
    "longitude": 170.514423,
    "slug": "2018-07-05-dunedin",
    "tag_name": "LC",
    "helpers": null,
    "host_name": "University of Otago",
    "latitude": -45.864683,
    "start_date": "2018-07-05"
  },
  {
    "instructors": "Evamaria Krause,Katrin Leinweber,José Alanis,Peer Herholz,Christian Krippes",
    "end_date": "2018-06-26",
    "url": "https://evamarik.github.io/2018-06-25-marburg/",
    "country": "DE",
    "curriculum": null,
    "venue": "Library Carpentry, VDB-Landesverband Hessen",
    "longitude": 8.771767,
    "slug": "2018-06-25-marburg",
    "tag_name": "LC",
    "helpers": "Stefan Beck,Christoph Marutschke,Andreas Morgen",
    "host_name": "Verein Deutscher Bibliothekarinnen",
    "latitude": 50.814287,
    "start_date": "2018-06-25"
  },
  {
    "instructors": "James Baker,Jez Cope",
    "end_date": "2018-05-15",
    "url": "https://jezcope.github.io/2018-05-14-edinburgh/",
    "country": "GB",
    "curriculum": null,
    "venue": "University of Edinburgh",
    "longitude": -3.2032139,
    "slug": "2018-05-14-edinburgh",
    "tag_name": "LC",
    "helpers": "Giacomo Peru,Patrick McCann,Mike Bennett,Andy Taylor,Sarah Ames,Jennifer Daub",
    "host_name": "University of Edinburgh",
    "latitude": 55.9465787,
    "start_date": "2018-05-14"
  },
  {
    "instructors": "Belinda Weaver",
    "end_date": "2018-04-04",
    "url": "https://weaverbel.github.io/2018-05-04-unimelb-lc/",
    "country": "AU",
    "curriculum": null,
    "venue": "University of Melbourne",
    "longitude": 144.9581026,
    "slug": "2018-04-04-unimelb-lc",
    "tag_name": "LC",
    "helpers": "Alistair Walsh,Winnie Hu",
    "host_name": "University of Melbourne",
    "latitude": -37.7969964,
    "start_date": "2018-04-04"
  },
  {
    "instructors": "Scott Peterson,Danielle Kane,Laura Smart,Noah Geraci,Katherine Koziar",
    "end_date": "2018-03-01",
    "url": "https://ljsmart.github.io/2018-03-01-UCDLF/",
    "country": "US",
    "curriculum": null,
    "venue": "UC Riverside",
    "longitude": -117.327482,
    "slug": "2018-03-01-UCDLF",
    "tag_name": "LC",
    "helpers": "Reid Otsuji",
    "host_name": "University of California Irvine",
    "latitude": 33.972643,
    "start_date": "2018-03-01"
  },
  {
    "instructors": "Paula Andrea Martinez,Belinda Weaver",
    "end_date": "2017-11-03",
    "url": "https://weaverbel.github.io/2017-11-03-liswp/",
    "country": "AU",
    "curriculum": null,
    "venue": "QULOC-LISWP Library Carpentry Workshop, UQ",
    "longitude": 153.0092138,
    "slug": "2017-11-03-liswp",
    "tag_name": "LC",
    "helpers": "Richard Vankoningsveld,Kylie Poulton,Julie Toohe",
    "host_name": "University of Queensland",
    "latitude": -27.4969902,
    "start_date": "2017-11-03"
  },
  {
    "instructors": "Tim Dennis,Erika Mias,Isak van der Walt,Kayleigh Lino",
    "end_date": "2017-10-01",
    "url": "https://nwu-digitalhumanities.github.io/2017-09-30-lc-south-africa/",
    "country": "ZA",
    "curriculum": "lc-other",
    "venue": "Library Carpentry, South Africa",
    "longitude": 28.0260775,
    "slug": "2017-09-30-lc-south-africa",
    "tag_name": "LC",
    "helpers": "Juan Steyn,Senzo Mpungose,Zine Sapula",
    "host_name": "North-West University",
    "latitude": -26.1904893,
    "start_date": "2017-09-30"
  },
  {
    "instructors": "Juliane Schneider,Belinda Weaver,Scott Peterson",
    "end_date": "2017-09-08",
    "url": "https://ucla-data-archive.github.io/2017-09-08-ucla/",
    "country": "US",
    "curriculum": null,
    "venue": "ucla.edu",
    "longitude": -118.4459781,
    "slug": "2017-09-08-ucla",
    "tag_name": "LC",
    "helpers": "Shari Laster,Shani Miller,Jamie Jamison",
    "host_name": "University of California Los Angeles",
    "latitude": 34.0722469,
    "start_date": "2017-09-08"
  },
  {
    "instructors": "Belinda Weaver",
    "end_date": "2017-08-29",
    "url": "https://weaverbel.github.io/2017-08-29-lcwa/",
    "country": "AU",
    "curriculum": null,
    "venue": "Library Carpentry - University of Western Australia",
    "longitude": 115.8162723,
    "slug": "2017-08-29-lcwa",
    "tag_name": "LC",
    "helpers": "Katina Toufexis,Janice Chan,Dan Piczak",
    "host_name": "University of Western Australia",
    "latitude": -31.983067,
    "start_date": "2017-08-29"
  },
  {
    "instructors": "Belinda Weaver",
    "end_date": "2017-08-28",
    "url": "https://weaverbel.github.io/2017-08-28-nsla-slwa",
    "country": "AU",
    "curriculum": null,
    "venue": "Library Carpentry - State Library of Western Australia",
    "longitude": 115.8583056,
    "slug": "2017-08-28-nsla-slwa",
    "tag_name": "LC",
    "helpers": "Katina Toufexis,Janice Chan,Kate Perry,Aimee Said",
    "host_name": "State Library of Western Australia",
    "latitude": -31.9488801,
    "start_date": "2017-08-28"
  },
  {
    "instructors": "Belinda Weaver",
    "end_date": "2017-08-21",
    "url": "https://weaverbel.github.io/2017-08-21-nsla-nla",
    "country": "AU",
    "curriculum": null,
    "venue": "Library Carpentry - National Library of Australia",
    "longitude": 149.1276331,
    "slug": "2017-08-21-nsla-nla",
    "tag_name": "LC",
    "helpers": "Robert Fleet,Narsimha Garlapati",
    "host_name": "National Library of Australia",
    "latitude": -35.2966195,
    "start_date": "2017-08-21"
  },
  {
    "instructors": "Belinda Weaver",
    "end_date": "2017-08-14",
    "url": "https://weaverbel.github.io/2017-08-14-nsla-slnsw/",
    "country": "AU",
    "curriculum": null,
    "venue": "Library Carpentry - State Library of NSW",
    "longitude": 151.2106624,
    "slug": "2017-08-14-nsla-slnsw",
    "tag_name": "LC",
    "helpers": "Weisi Chen,Cristina Lee,Daniel Bangert",
    "host_name": "State Library of NSW",
    "latitude": -33.86686,
    "start_date": "2017-08-14"
  },
  {
    "instructors": "Jeffrey Oliver",
    "end_date": "2017-08-14",
    "url": "https://jcoliver.github.io/2017-08-09-lc-tucson",
    "country": "US",
    "curriculum": null,
    "venue": "University of Arizona",
    "longitude": -110.949214,
    "slug": "2017-08-09-lc-tucson",
    "tag_name": "LC",
    "helpers": "Ben Hickson",
    "host_name": "University of Arizona",
    "latitude": 32.231195,
    "start_date": "2017-08-09"
  },
  {
    "instructors": "Belinda Weaver",
    "end_date": "2017-08-07",
    "url": "https://weaverbel.github.io/2017-08-07-nsla-slv",
    "country": "AU",
    "curriculum": null,
    "venue": "Library Carpentry - State Library of Victoria",
    "longitude": 144.963001,
    "slug": "2017-08-07-nsla-slv",
    "tag_name": "LC",
    "helpers": "Aimee Said,Peter Neish",
    "host_name": "State Library of Victoria",
    "latitude": -37.8098087,
    "start_date": "2017-08-07"
  },
  {
    "instructors": "Belinda Weaver",
    "end_date": "2017-07-31",
    "url": "https://weaverbel.github.io/2017-07-31-nsla-slsa/",
    "country": "AU",
    "curriculum": null,
    "venue": "Library Carpentry - State Library of South Australia",
    "longitude": 138.6001495,
    "slug": "2017-07-31-nsla-slsa",
    "tag_name": "LC",
    "helpers": "Aimee Said,Liz Walkley-Hall",
    "host_name": "State Library of South Australia",
    "latitude": -34.92034,
    "start_date": "2017-07-31"
  },
  {
    "instructors": "Belinda Weaver",
    "end_date": "2017-07-17",
    "url": "https://weaverbel.github.io/2017-07-17-nsla-linc/",
    "country": "AU",
    "curriculum": null,
    "venue": "Library Carpentry: LINC Tasmania",
    "longitude": 147.2729778,
    "slug": "2017-07-17-nsla-linc",
    "tag_name": "LC",
    "helpers": "Aimee Said",
    "host_name": "LINC Tasmania",
    "latitude": -42.8343673,
    "start_date": "2017-07-17"
  },
  {
    "instructors": "Belinda Weaver",
    "end_date": "2017-07-17",
    "url": "https://weaverbel.github.io/2017-07-19-nsla-slq/",
    "country": "AU",
    "curriculum": null,
    "venue": "Library Carpentry: SLQ, Brisbane",
    "longitude": 153.0159242,
    "slug": "2017-07-19-nsla-slq",
    "tag_name": "LC",
    "helpers": "Sam Hames,Richard Vankoningsveld,Aimee Said",
    "host_name": "State Library of Queensland",
    "latitude": -27.4711579,
    "start_date": "2017-07-17"
  },
  {
    "instructors": "James Baker,Tim Dennis",
    "end_date": "2017-05-18",
    "url": "https://datascienceinlibraries.github.io/2017-05-18-pitt/",
    "country": "US",
    "curriculum": null,
    "venue": "Library Carpentry, Pittsburgh",
    "longitude": -79.9541138,
    "slug": "2017-05-18-pitt",
    "tag_name": "LC",
    "helpers": "Lisa Zilinski,Matthew Burton,Christopher Erdmann,Ole Villadsen,Jeannette Ekstrøm",
    "host_name": "University of Pittsburgh",
    "latitude": 40.4425525,
    "start_date": "2017-05-18"
  },
  {
    "instructors": "Juliane Schneider,Belinda Weaver",
    "end_date": "2017-05-11",
    "url": "https://weaverbel.github.io/2017-05-11-lc-boston/",
    "country": "US",
    "curriculum": null,
    "venue": "Library Carpentry, Boston",
    "longitude": -71.09416,
    "slug": "2017-05-11-lc-boston",
    "tag_name": "LC",
    "helpers": "Daina Bouquin,Tom Hohenstein,Joshua Dull",
    "host_name": "Massachusetts Institute of Technology",
    "latitude": 42.360091,
    "start_date": "2017-05-11"
  },
  {
    "instructors": "Jez Cope,Beth Montague-Hellen",
    "end_date": "2017-03-23",
    "url": "https://jezcope.github.io/2017-03-07-sheffield-lc/",
    "country": "GB",
    "curriculum": null,
    "venue": "University of Sheffield",
    "longitude": -1.484577,
    "slug": "2017-03-07-sheffield-lc",
    "tag_name": "LC",
    "helpers": "Claire Green,Anna Krystalli,Kat Koler,Angus Taggart",
    "host_name": "University of Sheffield",
    "latitude": 53.381786,
    "start_date": "2017-03-07"
  },
  {
    "instructors": "Harrison Dekker,Tim Dennis",
    "end_date": "2016-10-11",
    "url": "https://jt14den.github.io/2016-10-10-UCB/",
    "country": "US",
    "curriculum": null,
    "venue": "UC Berkeley Library - Library Carpentry",
    "longitude": -122.259487,
    "slug": "2016-10-10-UCB",
    "tag_name": "LC",
    "helpers": "Scott Peterson,Jennifer Dorner,Anna Sackmann",
    "host_name": "University of California Berkeley",
    "latitude": 37.872318,
    "start_date": "2016-10-10"
  },
  {
    "instructors": "Thomas Guignard,Kim Pham,Greg Wilson",
    "end_date": "2016-07-29",
    "url": "https://code4libtoronto.github.io/2016-07-28-librarycarpentry/",
    "country": "CA",
    "curriculum": null,
    "venue": "Toronto - Library Carpentry",
    "longitude": -79.3996661,
    "slug": "2016-07-28-librarycarpentry",
    "tag_name": "LC",
    "helpers": "Leslie Barnes,Nancy Fong",
    "host_name": "University of Toronto",
    "latitude": 43.664439,
    "start_date": "2016-07-28"
  },
  {
    "instructors": "Juliane Schneider,Reid Otsuji,Matt Critchlow",
    "end_date": "2016-07-22",
    "url": "https://ucsdlib.github.io/2016-07-18-UCSD/",
    "country": "US",
    "curriculum": null,
    "venue": "UC San Diego",
    "longitude": -117.2396384,
    "slug": "2016-07-18-UCSD",
    "tag_name": "LC",
    "helpers": "Tim Dennis,Ryan Johnson",
    "host_name": "University of California San Diego",
    "latitude": 32.8811507,
    "start_date": "2016-07-18"
  },
  {
    "instructors": "Daniel Baird,Jay van Schyndel",
    "end_date": "2016-07-14",
    "url": "https://jcu-eresearch.github.io/2016-07-LibraryCarpentry/index.html",
    "country": "AU",
    "curriculum": null,
    "venue": "James Cook University, Townsville",
    "longitude": 146.759845,
    "slug": "2016-07-12-LibraryCarpentry",
    "tag_name": "LC",
    "helpers": "Collin Storlie,Clair Meade",
    "host_name": "James Cook University",
    "latitude": -19.329371,
    "start_date": "2016-07-12"
  },
  {
    "instructors": "Belinda Weaver",
    "end_date": "2016-06-14",
    "url": "https://weaverbel.github.io/2016-06-13-LibCarp/index.html",
    "country": "AU",
    "curriculum": null,
    "venue": "The University of Queensland",
    "longitude": 153.01493,
    "slug": "2016-06-13-LibCarp",
    "tag_name": "LC",
    "helpers": "Marco Fahmi",
    "host_name": "University of Queensland",
    "latitude": -27.501425,
    "start_date": "2016-06-13"
  },
  {
    "instructors": "Kyrre Låberg,Dan Michael Heggø,Leon du Toit,Live Rasmussen,Elin Stangeland,Live Kvale,Ahmed Abdi Mohammed,Stian Lågstad,Ivar Stangeby",
    "end_date": "2016-03-18",
    "url": "https://scriptotek.github.io/2016-03-17-BS/",
    "country": "NO",
    "curriculum": null,
    "venue": "Biblioteksløyd beta : Universitetsbiblioteket i Oslo",
    "longitude": 10.723284,
    "slug": "2016-03-17-BS",
    "tag_name": "LC",
    "helpers": null,
    "host_name": "University of Oslo",
    "latitude": 59.939673,
    "start_date": "2016-03-17"
  },
  {
    "instructors": "Cam Macdonell,Vicky Varga",
    "end_date": "2015-07-10",
    "url": "https://cmacdonell.github.io/2015-07-09-vpl/",
    "country": "CA",
    "curriculum": null,
    "venue": "West Vancouver Memorial Library, Welsh Hall",
    "longitude": -123.165847,
    "slug": "2015-07-09-vpl",
    "tag_name": "LC",
    "helpers": null,
    "host_name": "West Vancouver Library",
    "latitude": 49.328984,
    "start_date": "2015-07-09"
  },
  {
    "instructors": "Cam Macdonell,Vicky Varga",
    "end_date": "2014-12-15",
    "url": "https://vixvarga.github.io/12-14-epl/",
    "country": "CA",
    "curriculum": null,
    "venue": "Edmonton Public Library",
    "longitude": -113.4897479,
    "slug": "2014-12-14-epl",
    "tag_name": "LC",
    "helpers": "Cody Moorhouse,Katie Thompson",
    "host_name": "Edmonton Public Library",
    "latitude": 53.5430628,
    "start_date": "2014-12-14"
  },
  {
    "instructors": "Timothy Cerino,Cam Macdonell,Jason Williams,Greg Wilson",
    "end_date": "2014-08-07",
    "url": "https://swcarpentry.github.io/2014-08-06-nypl/",
    "country": "US",
    "curriculum": null,
    "venue": "New York Public Library",
    "longitude": -73.981692,
    "slug": "2014-08-06-nypl",
    "tag_name": "LC",
    "helpers": "Jared Camins-Esakov,Yu-Ching Shih",
    "host_name": "New York Public Library",
    "latitude": 40.751901,
    "start_date": "2014-08-06"
  },
  {
    "instructors": "Abigail Cabunoc Mayes,Thomas Guignard,Cam Macdonell,Greg Wilson",
    "end_date": "2014-07-16",
    "url": "https://swcarpentry.github.io/2014-07-15-toronto/",
    "country": "CA",
    "curriculum": null,
    "venue": "Librarians in Toronto",
    "longitude": -79.39423,
    "slug": "2014-07-15-toronto",
    "tag_name": "LC",
    "helpers": "Dhavide Aruliah,Orion Buske,Ruth Collings,Dale Russell",
    "host_name": "Mozilla Foundation",
    "latitude": 43.64711,
    "start_date": "2014-07-15"
  },
  {
    "instructors": "Cam Macdonell,Dana Ouellette,Sam Popowich,Vicky Varga",
    "end_date": "2014-07-11",
    "url": "https://cmacdonell.github.io/2014-07-10-epl/",
    "country": "CA",
    "curriculum": null,
    "venue": "Software Skills for Librarians at EPL",
    "longitude": -113.489552,
    "slug": "2014-07-10-epl",
    "tag_name": "LC",
    "helpers": null,
    "host_name": "Edmonton Public Library",
    "latitude": 53.542948,
    "start_date": "2014-07-10"
  },
  {
    "instructors": "Chris Gray,Victor Ng,Greg Wilson,Andromeda Yelton",
    "end_date": "2014-01-14",
    "url": "https://swcarpentry.github.io/2014-01-13-toronto/",
    "country": "CA",
    "curriculum": null,
    "venue": "Mozilla Toronto",
    "longitude": -79.39423,
    "slug": "2014-01-13-toronto",
    "tag_name": "LC",
    "helpers": null,
    "host_name": "Mozilla Foundation",
    "latitude": 43.64711,
    "start_date": "2014-01-13"
  },
  {
    "instructors": "Erik Bray,Jessica McKellar,R. David Murray,Michael Selik",
    "end_date": "2013-08-24",
    "url": "https://swcarpentry.github.io/2013-08-23-harvard/",
    "country": "US",
    "curriculum": null,
    "venue": "Harvard University",
    "longitude": -71.127904,
    "slug": "2013-08-23-harvard",
    "tag_name": "LC",
    "helpers": null,
    "host_name": "Harvard University",
    "latitude": 42.381705,
    "start_date": "2013-08-23"
  }
]
